[
  {"id": "pokrovsk", "name": "Pokrovsk", "lat": 48.2833, "lng": 37.1833, "control": "UA", "population": 60000, "is_polymarket_target": true, "polymarket_slug": "will-russia-capture-pokrovsk", "oblast": "Donetsk", "fortification_level": 0.7, "terrain_difficulty": 0.4, "garrison_estimate": 5000, "tags": ["logistics_hub", "rail_junction", "phase1_target"]},
  {"id": "chasiv_yar", "name": "Chasiv Yar", "lat": 48.6000, "lng": 37.8500, "control": "UA", "population": 12000, "is_polymarket_target": false, "oblast": "Donetsk", "fortification_level": 0.8, "terrain_difficulty": 0.7, "garrison_estimate": 3000, "tags": ["high_ground", "canal_defense"]},
  {"id": "toretsk", "name": "Toretsk", "lat": 48.3956, "lng": 37.8464, "control": "UA", "population": 32000, "is_polymarket_target": true, "polymarket_slug": "will-russia-capture-toretsk", "oblast": "Donetsk", "fortification_level": 0.6, "terrain_difficulty": 0.5, "garrison_estimate": 2500, "tags": ["urban", "phase1_target"]},
  {"id": "kupiansk", "name": "Kupiansk", "lat": 49.7133, "lng": 37.6167, "control": "UA", "population": 27000, "is_polymarket_target": true, "polymarket_slug": "will-russia-capture-kupiansk", "oblast": "Kharkiv", "fortification_level": 0.6, "terrain_difficulty": 0.4, "garrison_estimate": 3500, "tags": ["rail_junction", "oskil_river", "phase1_target"]},
  {"id": "zaporizhzhia", "name": "Zaporizhzhia", "lat": 47.8388, "lng": 35.1396, "control": "UA", "population": 710000, "is_polymarket_target": false, "oblast": "Zaporizhzhia", "fortification_level": 0.9, "terrain_difficulty": 0.5, "garrison_estimate": 15000, "tags": ["regional_capital", "dnipro_river", "nuclear_plant_nearby"]},
  {"id": "orikhiv", "name": "Orikhiv", "lat": 47.5667, "lng": 35.7833, "control": "UA", "population": 14000, "is_polymarket_target": true, "polymarket_slug": "will-russia-capture-orikhiv", "oblast": "Zaporizhzhia", "fortification_level": 0.6, "terrain_difficulty": 0.3, "garrison_estimate": 2000, "tags": ["southern_front", "2023_counteroffensive"]},
  {"id": "hryshyne", "name": "Hryshyne", "lat": 48.1500, "lng": 37.0333, "control": "CONTESTED", "population": 800, "is_polymarket_target": true, "polymarket_slug": "will-russia-capture-hryshyne", "oblast": "Donetsk", "fortification_level": 0.3, "terrain_difficulty": 0.3, "garrison_estimate": 500, "tags": ["pokrovsk_approach", "active_combat"]},

  {"id": "kramatorsk", "name": "Kramatorsk", "lat": 48.7356, "lng": 37.5856, "control": "UA", "population": 150000, "oblast": "Donetsk", "fortification_level": 0.8, "terrain_difficulty": 0.5, "garrison_estimate": 8000, "tags": ["ua_hq_donbas", "rail_hub"]},
  {"id": "sloviansk", "name": "Sloviansk", "lat": 48.8511, "lng": 37.6167, "control": "UA", "population": 106000, "is_polymarket_target": true, "oblast": "Donetsk", "fortification_level": 0.7, "terrain_difficulty": 0.6, "garrison_estimate": 4000, "tags": ["hilltop_defense", "2014_battle", "phase4_target"]},
  {"id": "kostiantynivka", "name": "Kostiantynivka", "lat": 48.5297, "lng": 37.7081, "control": "UA", "population": 68000, "is_polymarket_target": true, "oblast": "Donetsk", "fortification_level": 0.5, "terrain_difficulty": 0.4, "garrison_estimate": 2000, "tags": ["supply_node", "phase4_target"]},
  {"id": "druzhkivka", "name": "Druzhkivka", "lat": 48.6181, "lng": 37.5286, "control": "UA", "population": 55000, "oblast": "Donetsk", "fortification_level": 0.5, "terrain_difficulty": 0.4, "garrison_estimate": 1500, "tags": ["supply_node"]},
  {"id": "bakhmut", "name": "Bakhmut", "lat": 48.5953, "lng": 38.0003, "control": "RU", "population": 73000, "oblast": "Donetsk", "fortification_level": 0.3, "terrain_difficulty": 0.5, "garrison_estimate": 4000, "tags": ["fallen_2023", "devastated"]},
  {"id": "siversk", "name": "Siversk", "lat": 48.8667, "lng": 38.1000, "control": "UA", "population": 11000, "oblast": "Donetsk", "fortification_level": 0.7, "terrain_difficulty": 0.7, "garrison_estimate": 2000, "tags": ["donets_river_defense"]},
  {"id": "lyman", "name": "Lyman", "lat": 48.9833, "lng": 37.8167, "control": "UA", "population": 20000, "is_polymarket_target": true, "oblast": "Donetsk", "fortification_level": 0.6, "terrain_difficulty": 0.6, "garrison_estimate": 2500, "tags": ["recaptured_2022", "rail_junction", "phase4_target"]},
  {"id": "avdiivka", "name": "Avdiivka", "lat": 48.1397, "lng": 37.7472, "control": "RU", "population": 31000, "oblast": "Donetsk", "fortification_level": 0.2, "terrain_difficulty": 0.4, "garrison_estimate": 3000, "tags": ["fallen_feb_2024", "coke_plant"]},
  {"id": "marinka", "name": "Marinka", "lat": 47.9422, "lng": 37.5058, "control": "RU", "population": 9000, "oblast": "Donetsk", "fortification_level": 0.1, "terrain_difficulty": 0.3, "garrison_estimate": 1000, "tags": ["fallen_2023", "devastated"]},
  {"id": "vuhledar", "name": "Vuhledar", "lat": 47.7833, "lng": 37.2500, "control": "RU", "population": 14000, "oblast": "Donetsk", "fortification_level": 0.2, "terrain_difficulty": 0.5, "garrison_estimate": 2000, "tags": ["fallen_2024", "hilltop"]},
  {"id": "kurakhove", "name": "Kurakhove", "lat": 47.9833, "lng": 37.3000, "control": "RU", "population": 20000, "oblast": "Donetsk", "fortification_level": 0.2, "terrain_difficulty": 0.3, "garrison_estimate": 1500, "tags": ["fallen_2024", "reservoir"]},
  {"id": "selydove", "name": "Selydove", "lat": 48.1500, "lng": 37.3000, "control": "RU", "population": 21000, "oblast": "Donetsk", "fortification_level": 0.2, "terrain_difficulty": 0.3, "garrison_estimate": 1000, "tags": ["fallen_2024"]},

  {"id": "pavlohrad", "name": "Pavlohrad", "lat": 48.5333, "lng": 35.8667, "control": "UA", "population": 104000, "oblast": "Dnipropetrovsk", "fortification_level": 0.6, "terrain_difficulty": 0.3, "garrison_estimate": 3000, "tags": ["rear_logistics", "rail_hub"]},
  {"id": "dnipro", "name": "Dnipro", "lat": 48.4647, "lng": 35.0462, "control": "UA", "population": 980000, "oblast": "Dnipropetrovsk", "fortification_level": 0.9, "terrain_difficulty": 0.5, "garrison_estimate": 20000, "tags": ["major_city", "supply_origin", "safe_rear"]},
  {"id": "nikopol", "name": "Nikopol", "lat": 47.5719, "lng": 34.3978, "control": "UA", "population": 108000, "oblast": "Dnipropetrovsk", "fortification_level": 0.5, "terrain_difficulty": 0.4, "garrison_estimate": 2000, "tags": ["dnipro_river", "shelling_target"]},

  {"id": "izium", "name": "Izium", "lat": 49.2156, "lng": 37.2611, "control": "UA", "population": 46000, "oblast": "Kharkiv", "fortification_level": 0.6, "terrain_difficulty": 0.6, "garrison_estimate": 3000, "tags": ["recaptured_2022", "donets_river"]},
  {"id": "borova", "name": "Borova", "lat": 49.0500, "lng": 37.6667, "control": "UA", "population": 5000, "is_polymarket_target": true, "oblast": "Kharkiv", "fortification_level": 0.4, "terrain_difficulty": 0.5, "garrison_estimate": 1000, "tags": ["oskil_river", "phase4_target"]},
  {"id": "oskil", "name": "Oskil", "lat": 49.5333, "lng": 37.3333, "control": "UA", "population": 3000, "oblast": "Kharkiv", "fortification_level": 0.5, "terrain_difficulty": 0.5, "garrison_estimate": 800, "tags": ["river_defense"]},

  {"id": "donetsk_city", "name": "Donetsk", "lat": 48.0159, "lng": 37.8028, "control": "RU", "population": 905000, "oblast": "Donetsk", "fortification_level": 0.8, "terrain_difficulty": 0.5, "garrison_estimate": 25000, "tags": ["ru_regional_hq"]},
  {"id": "horlivka", "name": "Horlivka", "lat": 48.3069, "lng": 38.0525, "control": "RU", "population": 240000, "oblast": "Donetsk", "fortification_level": 0.6, "terrain_difficulty": 0.4, "garrison_estimate": 5000, "tags": ["ru_held_since_2014"]},
  {"id": "makiivka", "name": "Makiivka", "lat": 48.0453, "lng": 37.9653, "control": "RU", "population": 340000, "oblast": "Donetsk", "fortification_level": 0.6, "terrain_difficulty": 0.4, "garrison_estimate": 5000, "tags": ["ru_held_since_2014"]},
  {"id": "luhansk_city", "name": "Luhansk", "lat": 48.5740, "lng": 39.3078, "control": "RU", "population": 400000, "oblast": "Luhansk", "fortification_level": 0.7, "terrain_difficulty": 0.4, "garrison_estimate": 10000, "tags": ["ru_regional_hq"]},
  {"id": "severodonetsk", "name": "Severodonetsk", "lat": 48.9483, "lng": 38.4933, "control": "RU", "population": 100000, "oblast": "Luhansk", "fortification_level": 0.4, "terrain_difficulty": 0.5, "garrison_estimate": 4000, "tags": ["fallen_2022"]},
  {"id": "lysychansk", "name": "Lysychansk", "lat": 48.9042, "lng": 38.4375, "control": "RU", "population": 95000, "oblast": "Luhansk", "fortification_level": 0.4, "terrain_difficulty": 0.6, "garrison_estimate": 3000, "tags": ["fallen_2022", "high_ground"]},
  {"id": "kreminna", "name": "Kreminna", "lat": 49.0500, "lng": 38.2167, "control": "RU", "population": 18000, "oblast": "Luhansk", "fortification_level": 0.5, "terrain_difficulty": 0.6, "garrison_estimate": 3000, "tags": ["forest_defense", "contested_area"]},
  {"id": "svatove", "name": "Svatove", "lat": 49.4083, "lng": 38.1583, "control": "RU", "population": 16000, "oblast": "Luhansk", "fortification_level": 0.5, "terrain_difficulty": 0.4, "garrison_estimate": 3000, "tags": ["supply_node"]},

  {"id": "hulyaipole", "name": "Hulyaipole", "lat": 47.6667, "lng": 36.2500, "control": "UA", "population": 13000, "is_polymarket_target": true, "oblast": "Zaporizhzhia", "fortification_level": 0.5, "terrain_difficulty": 0.3, "garrison_estimate": 1500, "tags": ["southern_front", "phase4_target"]},
  {"id": "polohy", "name": "Polohy", "lat": 47.4833, "lng": 36.2500, "control": "RU", "population": 18000, "oblast": "Zaporizhzhia", "fortification_level": 0.5, "terrain_difficulty": 0.3, "garrison_estimate": 2000, "tags": ["ru_held"]},
  {"id": "tokmak", "name": "Tokmak", "lat": 47.2500, "lng": 35.7000, "control": "RU", "population": 30000, "oblast": "Zaporizhzhia", "fortification_level": 0.7, "terrain_difficulty": 0.3, "garrison_estimate": 4000, "tags": ["ru_logistics_hub", "2023_offensive_target"]},
  {"id": "melitopol", "name": "Melitopol", "lat": 46.8489, "lng": 35.3653, "control": "RU", "population": 150000, "oblast": "Zaporizhzhia", "fortification_level": 0.7, "terrain_difficulty": 0.3, "garrison_estimate": 8000, "tags": ["ru_admin_center", "key_objective"]},
  {"id": "enerhodar", "name": "Enerhodar", "lat": 47.4989, "lng": 34.6536, "control": "RU", "population": 52000, "oblast": "Zaporizhzhia", "fortification_level": 0.5, "terrain_difficulty": 0.4, "garrison_estimate": 2000, "tags": ["nuclear_plant", "dnipro_river"]},

  {"id": "myrnohrad", "name": "Myrnohrad", "lat": 48.3000, "lng": 37.2667, "control": "CONTESTED", "population": 50000, "oblast": "Donetsk", "fortification_level": 0.5, "terrain_difficulty": 0.4, "garrison_estimate": 2000, "tags": ["pokrovsk_defense_line"]},
  {"id": "ocheretyne", "name": "Ocheretyne", "lat": 48.2000, "lng": 37.5333, "control": "RU", "population": 3000, "oblast": "Donetsk", "fortification_level": 0.2, "terrain_difficulty": 0.3, "garrison_estimate": 800, "tags": ["fallen_2024", "pokrovsk_approach"]}
]
